{"type":"FeatureCollection","features":[{"type":"Feature","geometry":{"type":"Point","coordinates":[-3.187645,55.944143]},"properties":{"marker-size":"medium","location":"bound.ends.matter","rgb-string":"#40ff00","marker-color":"#40ff00","marker-symbol":"lighthouse"}},{"type":"Feature","geometry":{"type":"Point","coordinates":[-3.187645,55.944143]},"properties":{"marker-size":"medium","location":"bound.ends.matter","rgb-string":"#40ff00","marker-color":"#40ff00","marker-symbol":"lighthouse"}},{"type":"Feature","geometry":{"type":"Point","coordinates":[-3.1875,55.943874]},"properties":{"marker-size":"medium","location":"begins.spider.drips","rgb-string":"#80ff00","marker-color":"#80ff00","marker-symbol":"lighthouse"}},{"type":"Feature","geometry":{"type":"Point","coordinates":[-3.1875,55.943874]},"properties":{"marker-size":"medium","location":"begins.spider.drips","rgb-string":"#80ff00","marker-color":"#80ff00","marker-symbol":"lighthouse"}},{"type":"Feature","geometry":{"type":"Point","coordinates":[-3.187982,55.943497]},"properties":{"marker-size":"medium","location":"scare.cubs.resort","rgb-string":"#000000","marker-color":"#000000","marker-symbol":"cross"}},{"type":"Feature","geometry":{"type":"Point","coordinates":[-3.187693,55.942769]},"properties":{"marker-size":"medium","location":"panic.squad.danger","rgb-string":"#ffc000","marker-color":"#ffc000","marker-symbol":"danger"}},{"type":"Feature","geometry":{"type":"Point","coordinates":[-3.187018,55.942877]},"properties":{"marker-size":"medium","location":"valve.elaborate.fortunate","rgb-string":"#ff8000","marker-color":"#ff8000","marker-symbol":"danger"}},{"type":"Feature","geometry":{"type":"Point","coordinates":[-3.185621,55.943065]},"properties":{"marker-size":"medium","location":"toned.deflection.bland","rgb-string":"#ffc000","marker-color":"#ffc000","marker-symbol":"danger"}},{"type":"Feature","geometry":{"type":"Point","coordinates":[-3.184658,55.943874]},"properties":{"marker-size":"medium","location":"rider.mile.lime","rgb-string":"#ff8000","marker-color":"#ff8000","marker-symbol":"danger"}},{"type":"Feature","geometry":{"type":"Point","coordinates":[-3.184899,55.944736]},"properties":{"marker-size":"medium","location":"slide.leads.stores","rgb-string":"#000000","marker-color":"#000000","marker-symbol":"cross"}},{"type":"Feature","geometry":{"type":"Point","coordinates":[-3.184465,55.944952]},"properties":{"marker-size":"medium","location":"sports.topic.clocks","rgb-string":"#ffc000","marker-color":"#ffc000","marker-symbol":"danger"}},{"type":"Feature","geometry":{"type":"Point","coordinates":[-3.184513,55.945302]},"properties":{"marker-size":"medium","location":"settle.title.united","rgb-string":"#ff4000","marker-color":"#ff4000","marker-symbol":"danger"}},{"type":"Feature","geometry":{"type":"Point","coordinates":[-3.184513,55.945302]},"properties":{"marker-size":"medium","location":"settle.title.united","rgb-string":"#ff4000","marker-color":"#ff4000","marker-symbol":"danger"}},{"type":"Feature","geometry":{"type":"Point","coordinates":[-3.185814,55.94603]},"properties":{"marker-size":"medium","location":"renew.slows.basket","rgb-string":"#ff8000","marker-color":"#ff8000","marker-symbol":"danger"}},{"type":"Feature","geometry":{"type":"Point","coordinates":[-3.186296,55.945761]},"properties":{"marker-size":"medium","location":"posts.kicked.universally","rgb-string":"#ff4000","marker-color":"#ff4000","marker-symbol":"danger"}},{"type":"Feature","geometry":{"type":"Point","coordinates":[-3.186922,55.945437]},"properties":{"marker-size":"medium","location":"spent.spoon.bolt","rgb-string":"#ffc000","marker-color":"#ffc000","marker-symbol":"danger"}},{"type":"Feature","geometry":{"type":"Point","coordinates":[-3.186729,55.945168]},"properties":{"marker-size":"medium","location":"dragon.bottle.crisp","rgb-string":"#ffc000","marker-color":"#ffc000","marker-symbol":"danger"}},{"type":"Feature","geometry":{"type":"Point","coordinates":[-3.186729,55.945168]},"properties":{"marker-size":"medium","location":"dragon.bottle.crisp","rgb-string":"#ffc000","marker-color":"#ffc000","marker-symbol":"danger"}},{"type":"Feature","geometry":{"type":"Point","coordinates":[-3.186392,55.944656]},"properties":{"marker-size":"medium","location":"rated.fired.crowds","rgb-string":"#ff4000","marker-color":"#ff4000","marker-symbol":"danger"}},{"type":"Feature","geometry":{"type":"Point","coordinates":[-3.18567,55.944359]},"properties":{"marker-size":"medium","location":"atoms.vanish.foods","rgb-string":"#ff8000","marker-color":"#ff8000","marker-symbol":"danger"}},{"type":"Feature","geometry":{"type":"Point","coordinates":[-3.187307,55.944494]},"properties":{"marker-size":"medium","location":"only.fairly.rift","rgb-string":"#000000","marker-color":"#000000","marker-symbol":"cross"}},{"type":"Feature","geometry":{"type":"Point","coordinates":[-3.188463,55.945761]},"properties":{"marker-size":"medium","location":"bend.tubes.chops","rgb-string":"#ff8000","marker-color":"#ff8000","marker-symbol":"danger"}},{"type":"Feature","geometry":{"type":"Point","coordinates":[-3.188897,55.945707]},"properties":{"marker-size":"medium","location":"stops.else.chats","rgb-string":"#000000","marker-color":"#000000","marker-symbol":"cross"}},{"type":"Feature","geometry":{"type":"Point","coordinates":[-3.188704,55.945168]},"properties":{"marker-size":"medium","location":"rooms.lamp.teach","rgb-string":"#000000","marker-color":"#000000","marker-symbol":"cross"}},{"type":"Feature","geometry":{"type":"Point","coordinates":[-3.18933,55.945653]},"properties":{"marker-size":"medium","location":"museum.spicy.horns","rgb-string":"#ff0000","marker-color":"#ff0000","marker-symbol":"danger"}},{"type":"Feature","geometry":{"type":"Point","coordinates":[-3.191161,55.945976]},"properties":{"marker-size":"medium","location":"simple.rust.audio","rgb-string":"#ffc000","marker-color":"#ffc000","marker-symbol":"danger"}},{"type":"Feature","geometry":{"type":"Point","coordinates":[-3.191016,55.944979]},"properties":{"marker-size":"medium","location":"shapes.sheep.nature","rgb-string":"#ff8000","marker-color":"#ff8000","marker-symbol":"danger"}},{"type":"Feature","geometry":{"type":"Point","coordinates":[-3.190727,55.943092]},"properties":{"marker-size":"medium","location":"relate.chill.vest","rgb-string":"#00ff00","marker-color":"#00ff00","marker-symbol":"lighthouse"}},{"type":"Feature","geometry":{"type":"Point","coordinates":[-3.191113,55.943631]},"properties":{"marker-size":"medium","location":"loaf.cheer.slave","rgb-string":"#00ff00","marker-color":"#00ff00","marker-symbol":"lighthouse"}},{"type":"Feature","geometry":{"type":"Point","coordinates":[-3.191113,55.943901]},"properties":{"marker-size":"medium","location":"spicy.bunch.shady","rgb-string":"#00ff00","marker-color":"#00ff00","marker-symbol":"lighthouse"}},{"type":"Feature","geometry":{"type":"Point","coordinates":[-3.190438,55.943982]},"properties":{"marker-size":"medium","location":"pump.wheels.hulk","rgb-string":"#000000","marker-color":"#000000","marker-symbol":"cross"}},{"type":"Feature","geometry":{"type":"Point","coordinates":[-3.190294,55.943712]},"properties":{"marker-size":"medium","location":"sculpture.shot.melon","rgb-string":"#40ff00","marker-color":"#40ff00","marker-symbol":"lighthouse"}},{"type":"Feature","geometry":{"type":"Point","coordinates":[-3.190197,55.943443]},"properties":{"marker-size":"medium","location":"arts.dish.scarcely","rgb-string":"#40ff00","marker-color":"#40ff00","marker-symbol":"lighthouse"}},{"type":"Feature","geometry":{"type":"Point","coordinates":[-3.189908,55.942904]},"properties":{"marker-size":"medium","location":"second.launch.miles","rgb-string":"#00ff00","marker-color":"#00ff00","marker-symbol":"lighthouse"}},{"type":"Feature","geometry":{"type":"Point","coordinates":[-3.189234,55.943012]},"properties":{"marker-size":"medium","location":"region.passes.pencil","rgb-string":"#80ff00","marker-color":"#80ff00","marker-symbol":"lighthouse"}},{"type":"Feature","geometry":{"type":"Point","coordinates":[-3.189523,55.943551]},"properties":{"marker-size":"medium","location":"cars.attend.hotels","rgb-string":"#40ff00","marker-color":"#40ff00","marker-symbol":"lighthouse"}},{"type":"Feature","geometry":{"type":"Point","coordinates":[-3.188849,55.943658]},"properties":{"marker-size":"medium","location":"labels.hotels.alert","rgb-string":"#40ff00","marker-color":"#40ff00","marker-symbol":"lighthouse"}},{"type":"Feature","geometry":{"type":"LineString","coordinates":[[-3.1878,55.9444],[-3.18765,55.9441402],[-3.1875,55.9438804],[-3.1877298,55.9436875],[-3.1879596,55.9434947],[-3.187857,55.9432128],[-3.1877544,55.9429309],[-3.1874544,55.9429309],[-3.187159,55.9428788],[-3.1868635,55.9429309],[-3.1865681,55.942983],[-3.1862681,55.942983],[-3.1859726,55.9430351],[-3.1856726,55.9430351],[-3.1854428,55.9432279],[-3.185213,55.9434208],[-3.1849832,55.9436136],[-3.1847534,55.9438064],[-3.1848055,55.9441019],[-3.1848576,55.9443973],[-3.1849097,55.9446928],[-3.1846499,55.9448428],[-3.1843901,55.9449928],[-3.1844927,55.9452747],[-3.1847525,55.9454247],[-3.1850123,55.9455747],[-3.1852721,55.9457247],[-3.1855319,55.9458747],[-3.1857917,55.9460247],[-3.1860515,55.9458747],[-3.1863334,55.9457721],[-3.1865932,55.9456221],[-3.186853,55.9454721],[-3.1867504,55.9451902],[-3.1866004,55.9449303],[-3.1864076,55.9447005],[-3.1861257,55.9445979],[-3.1858659,55.9444479],[-3.185584,55.9443453],[-3.185884,55.9443453],[-3.1861794,55.9443974],[-3.1864092,55.9445902],[-3.1867047,55.9446423],[-3.1870001,55.9445902],[-3.187282,55.9444876],[-3.1870222,55.9446376],[-3.1867624,55.9447876],[-3.1870222,55.9449376],[-3.1867624,55.9447876],[-3.1870222,55.9449376],[-3.1867624,55.9447876],[-3.1870222,55.9449376],[-3.1867624,55.9447876],[-3.1870222,55.9449376],[-3.1867624,55.9447876],[-3.1870222,55.9449376],[-3.1867624,55.9447876],[-3.1870222,55.9449376],[-3.1867624,55.9447876],[-3.1870222,55.9449376],[-3.1867624,55.9447876],[-3.1870222,55.9449376],[-3.1867624,55.9447876],[-3.1870222,55.9449376],[-3.1867624,55.9447876],[-3.1870222,55.9449376],[-3.1867624,55.9447876],[-3.1870222,55.9449376],[-3.1867624,55.9447876],[-3.1870222,55.9449376],[-3.1867624,55.9447876],[-3.1870222,55.9449376],[-3.1867624,55.9447876],[-3.1870222,55.9449376],[-3.1867624,55.9447876],[-3.1870222,55.9449376],[-3.1867624,55.9447876],[-3.1870222,55.9449376],[-3.1867624,55.9447876],[-3.1870222,55.9449376],[-3.1867624,55.9447876],[-3.1870222,55.9449376],[-3.1867624,55.9447876],[-3.1870222,55.9449376],[-3.1867624,55.9447876],[-3.1870222,55.9449376],[-3.1867624,55.9447876],[-3.1870222,55.9449376],[-3.1867624,55.9447876],[-3.1870222,55.9449376],[-3.1867624,55.9447876],[-3.1870222,55.9449376],[-3.1867624,55.9447876],[-3.1870222,55.9449376],[-3.1867624,55.9447876],[-3.1870222,55.9449376],[-3.1867624,55.9447876],[-3.1870222,55.9449376],[-3.1867624,55.9447876],[-3.1870222,55.9449376],[-3.1867624,55.9447876],[-3.1870222,55.9449376],[-3.1867624,55.9447876],[-3.1870222,55.9449376],[-3.1867624,55.9447876],[-3.1870222,55.9449376],[-3.1867624,55.9447876],[-3.1870222,55.9449376],[-3.1867624,55.9447876],[-3.1870222,55.9449376],[-3.1867624,55.9447876],[-3.1870222,55.9449376],[-3.1867624,55.9447876],[-3.1870222,55.9449376],[-3.1867624,55.9447876],[-3.1870222,55.9449376],[-3.1867624,55.9447876],[-3.1870222,55.9449376],[-3.1867624,55.9447876],[-3.1870222,55.9449376],[-3.1867624,55.9447876],[-3.1870222,55.9449376],[-3.1867624,55.9447876],[-3.1870222,55.9449376],[-3.1867624,55.9447876],[-3.1870222,55.9449376],[-3.1867624,55.9447876],[-3.1870222,55.9449376],[-3.1867624,55.9447876],[-3.1870222,55.9449376],[-3.1867624,55.9447876],[-3.1870222,55.9449376],[-3.1867624,55.9447876],[-3.1870222,55.9449376],[-3.1867624,55.9447876],[-3.1870222,55.9449376],[-3.1867624,55.9447876],[-3.1870222,55.9449376],[-3.1867624,55.9447876],[-3.1870222,55.9449376],[-3.1867624,55.9447876],[-3.1870222,55.9449376],[-3.1867624,55.9447876],[-3.1870222,55.9449376],[-3.1867624,55.9447876],[-3.1870222,55.9449376],[-3.1867624,55.9447876],[-3.1870222,55.9449376],[-3.1867624,55.9447876],[-3.1870222,55.9449376]]},"properties":{}}]}