{"type":"FeatureCollection","features":[{"type":"Feature","geometry":{"type":"Point","coordinates":[-3.187789,55.944386]},"properties":{"marker-size":"medium","location":"thank.salsa.brain","rgb-string":"#40ff00","marker-color":"#40ff00","marker-symbol":"lighthouse"}},{"type":"Feature","geometry":{"type":"Point","coordinates":[-3.187307,55.944494]},"properties":{"marker-size":"medium","location":"only.fairly.rift","rgb-string":"#ffc000","marker-color":"#ffc000","marker-symbol":"danger"}},{"type":"Feature","geometry":{"type":"Point","coordinates":[-3.187018,55.943982]},"properties":{"marker-size":"medium","location":"renew.ears.tend","rgb-string":"#80ff00","marker-color":"#80ff00","marker-symbol":"lighthouse"}},{"type":"Feature","geometry":{"type":"Point","coordinates":[-3.187355,55.943604]},"properties":{"marker-size":"medium","location":"shut.stands.media","rgb-string":"#80ff00","marker-color":"#80ff00","marker-symbol":"lighthouse"}},{"type":"Feature","geometry":{"type":"Point","coordinates":[-3.187355,55.943604]},"properties":{"marker-size":"medium","location":"shut.stands.media","rgb-string":"#80ff00","marker-color":"#80ff00","marker-symbol":"lighthouse"}},{"type":"Feature","geometry":{"type":"Point","coordinates":[-3.188126,55.943793]},"properties":{"marker-size":"medium","location":"cubs.trucks.help","rgb-string":"#40ff00","marker-color":"#40ff00","marker-symbol":"lighthouse"}},{"type":"Feature","geometry":{"type":"Point","coordinates":[-3.191161,55.942742]},"properties":{"marker-size":"medium","location":"along.spill.limp","rgb-string":"#00ff00","marker-color":"#00ff00","marker-symbol":"lighthouse"}},{"type":"Feature","geometry":{"type":"Point","coordinates":[-3.189764,55.942661]},"properties":{"marker-size":"medium","location":"hooked.shine.third","rgb-string":"#40ff00","marker-color":"#40ff00","marker-symbol":"lighthouse"}},{"type":"Feature","geometry":{"type":"Point","coordinates":[-3.18697,55.942688]},"properties":{"marker-size":"medium","location":"strut.river.surely","rgb-string":"#ff4000","marker-color":"#ff4000","marker-symbol":"danger"}},{"type":"Feature","geometry":{"type":"Point","coordinates":[-3.184947,55.943443]},"properties":{"marker-size":"medium","location":"sentences.sings.modern","rgb-string":"#ffc000","marker-color":"#ffc000","marker-symbol":"danger"}},{"type":"Feature","geometry":{"type":"Point","coordinates":[-3.186007,55.943901]},"properties":{"marker-size":"medium","location":"teams.mild.played","rgb-string":"#ffc000","marker-color":"#ffc000","marker-symbol":"danger"}},{"type":"Feature","geometry":{"type":"Point","coordinates":[-3.186103,55.944251]},"properties":{"marker-size":"medium","location":"organs.shape.fantastic","rgb-string":"#ff4000","marker-color":"#ff4000","marker-symbol":"danger"}},{"type":"Feature","geometry":{"type":"Point","coordinates":[-3.186103,55.944251]},"properties":{"marker-size":"medium","location":"organs.shape.fantastic","rgb-string":"#ff4000","marker-color":"#ff4000","marker-symbol":"danger"}},{"type":"Feature","geometry":{"type":"Point","coordinates":[-3.185525,55.943982]},"properties":{"marker-size":"medium","location":"manliness.poem.cliff","rgb-string":"#ffc000","marker-color":"#ffc000","marker-symbol":"danger"}},{"type":"Feature","geometry":{"type":"Point","coordinates":[-3.185525,55.943982]},"properties":{"marker-size":"medium","location":"manliness.poem.cliff","rgb-string":"#ffc000","marker-color":"#ffc000","marker-symbol":"danger"}},{"type":"Feature","geometry":{"type":"Point","coordinates":[-3.185236,55.944575]},"properties":{"marker-size":"medium","location":"acid.chair.butter","rgb-string":"#ff8000","marker-color":"#ff8000","marker-symbol":"danger"}},{"type":"Feature","geometry":{"type":"Point","coordinates":[-3.184899,55.944736]},"properties":{"marker-size":"medium","location":"slide.leads.stores","rgb-string":"#000000","marker-color":"#000000","marker-symbol":"cross"}},{"type":"Feature","geometry":{"type":"Point","coordinates":[-3.184513,55.945302]},"properties":{"marker-size":"medium","location":"settle.title.united","rgb-string":"#ff4000","marker-color":"#ff4000","marker-symbol":"danger"}},{"type":"Feature","geometry":{"type":"Point","coordinates":[-3.185621,55.945761]},"properties":{"marker-size":"medium","location":"shed.desire.muddy","rgb-string":"#ff4000","marker-color":"#ff4000","marker-symbol":"danger"}},{"type":"Feature","geometry":{"type":"Point","coordinates":[-3.185814,55.94603]},"properties":{"marker-size":"medium","location":"renew.slows.basket","rgb-string":"#ff0000","marker-color":"#ff0000","marker-symbol":"danger"}},{"type":"Feature","geometry":{"type":"Point","coordinates":[-3.185814,55.94603]},"properties":{"marker-size":"medium","location":"renew.slows.basket","rgb-string":"#ff0000","marker-color":"#ff0000","marker-symbol":"danger"}},{"type":"Feature","geometry":{"type":"Point","coordinates":[-3.186296,55.945761]},"properties":{"marker-size":"medium","location":"posts.kicked.universally","rgb-string":"#ff4000","marker-color":"#ff4000","marker-symbol":"danger"}},{"type":"Feature","geometry":{"type":"Point","coordinates":[-3.186729,55.945168]},"properties":{"marker-size":"medium","location":"dragon.bottle.crisp","rgb-string":"#ffc000","marker-color":"#ffc000","marker-symbol":"danger"}},{"type":"Feature","geometry":{"type":"Point","coordinates":[-3.188319,55.945518]},"properties":{"marker-size":"medium","location":"skills.less.herb","rgb-string":"#000000","marker-color":"#000000","marker-symbol":"cross"}},{"type":"Feature","geometry":{"type":"Point","coordinates":[-3.188897,55.945707]},"properties":{"marker-size":"medium","location":"stops.else.chats","rgb-string":"#ff0000","marker-color":"#ff0000","marker-symbol":"danger"}},{"type":"Feature","geometry":{"type":"Point","coordinates":[-3.191161,55.945976]},"properties":{"marker-size":"medium","location":"simple.rust.audio","rgb-string":"#000000","marker-color":"#000000","marker-symbol":"cross"}},{"type":"Feature","geometry":{"type":"Point","coordinates":[-3.191065,55.94444]},"properties":{"marker-size":"medium","location":"paying.crowd.weep","rgb-string":"#40ff00","marker-color":"#40ff00","marker-symbol":"lighthouse"}},{"type":"Feature","geometry":{"type":"Point","coordinates":[-3.191113,55.943901]},"properties":{"marker-size":"medium","location":"spicy.bunch.shady","rgb-string":"#00ff00","marker-color":"#00ff00","marker-symbol":"lighthouse"}},{"type":"Feature","geometry":{"type":"Point","coordinates":[-3.191161,55.943362]},"properties":{"marker-size":"medium","location":"meal.feed.large","rgb-string":"#40ff00","marker-color":"#40ff00","marker-symbol":"lighthouse"}},{"type":"Feature","geometry":{"type":"Point","coordinates":[-3.191161,55.943362]},"properties":{"marker-size":"medium","location":"meal.feed.large","rgb-string":"#40ff00","marker-color":"#40ff00","marker-symbol":"lighthouse"}},{"type":"Feature","geometry":{"type":"Point","coordinates":[-3.191161,55.943065]},"properties":{"marker-size":"medium","location":"else.urban.museum","rgb-string":"#00ff00","marker-color":"#00ff00","marker-symbol":"lighthouse"}},{"type":"Feature","geometry":{"type":"Point","coordinates":[-3.191161,55.943065]},"properties":{"marker-size":"medium","location":"else.urban.museum","rgb-string":"#00ff00","marker-color":"#00ff00","marker-symbol":"lighthouse"}},{"type":"Feature","geometry":{"type":"Point","coordinates":[-3.190727,55.943092]},"properties":{"marker-size":"medium","location":"relate.chill.vest","rgb-string":"#00ff00","marker-color":"#00ff00","marker-symbol":"lighthouse"}},{"type":"Feature","geometry":{"type":"Point","coordinates":[-3.190727,55.943092]},"properties":{"marker-size":"medium","location":"relate.chill.vest","rgb-string":"#00ff00","marker-color":"#00ff00","marker-symbol":"lighthouse"}},{"type":"Feature","geometry":{"type":"Point","coordinates":[-3.190294,55.943712]},"properties":{"marker-size":"medium","location":"sculpture.shot.melon","rgb-string":"#40ff00","marker-color":"#40ff00","marker-symbol":"lighthouse"}},{"type":"Feature","geometry":{"type":"Point","coordinates":[-3.189812,55.94409]},"properties":{"marker-size":"medium","location":"cliff.asleep.wedge","rgb-string":"#40ff00","marker-color":"#40ff00","marker-symbol":"lighthouse"}},{"type":"Feature","geometry":{"type":"Point","coordinates":[-3.189138,55.944197]},"properties":{"marker-size":"medium","location":"spoon.invest.every","rgb-string":"#40ff00","marker-color":"#40ff00","marker-symbol":"lighthouse"}},{"type":"Feature","geometry":{"type":"Point","coordinates":[-3.188704,55.943389]},"properties":{"marker-size":"medium","location":"system.speak.guard","rgb-string":"#00ff00","marker-color":"#00ff00","marker-symbol":"lighthouse"}},{"type":"Feature","geometry":{"type":"Point","coordinates":[-3.188608,55.943119]},"properties":{"marker-size":"medium","location":"groups.ideas.script","rgb-string":"#40ff00","marker-color":"#40ff00","marker-symbol":"lighthouse"}},{"type":"Feature","geometry":{"type":"Point","coordinates":[-3.188608,55.943119]},"properties":{"marker-size":"medium","location":"groups.ideas.script","rgb-string":"#40ff00","marker-color":"#40ff00","marker-symbol":"lighthouse"}},{"type":"Feature","geometry":{"type":"Point","coordinates":[-3.188271,55.944063]},"properties":{"marker-size":"medium","location":"rush.crown.link","rgb-string":"#00ff00","marker-color":"#00ff00","marker-symbol":"lighthouse"}},{"type":"Feature","geometry":{"type":"LineString","coordinates":[[-3.1878,55.9444],[-3.1876072,55.9441702],[-3.1878,55.9444],[-3.1875046,55.9444521],[-3.1872091,55.9445042],[-3.1871065,55.9442223],[-3.1870039,55.9439404],[-3.1872337,55.9437475],[-3.1875337,55.9437475],[-3.1878337,55.9437475],[-3.1881292,55.9437996],[-3.1884111,55.943697],[-3.188693,55.9435944],[-3.1889749,55.9434918],[-3.1892568,55.9433892],[-3.1895387,55.9432866],[-3.1898206,55.943184],[-3.1901025,55.9430814],[-3.1903844,55.9429788],[-3.1906663,55.9428762],[-3.1909482,55.9427736],[-3.1912437,55.9427215],[-3.1909437,55.9427215],[-3.1906437,55.9427215],[-3.1903437,55.9427215],[-3.1900482,55.9426694],[-3.1897482,55.9426694],[-3.1895554,55.9424396],[-3.1894054,55.9421798],[-3.18911,55.9422319],[-3.1888145,55.942284],[-3.1885191,55.942336],[-3.1882236,55.9423881],[-3.1879282,55.9424402],[-3.1876327,55.9424923],[-3.1873508,55.9425949],[-3.1870554,55.942647],[-3.1867735,55.9427496],[-3.1864916,55.9428522],[-3.1862097,55.9429548],[-3.1859278,55.9430575],[-3.1856459,55.9431601],[-3.1853639,55.9432627],[-3.185082,55.9433653],[-3.1853418,55.9435153],[-3.1856017,55.9436653],[-3.1858615,55.9438153],[-3.1860115,55.9440751],[-3.185716,55.944023],[-3.1855232,55.9442528],[-3.1853303,55.9444826],[-3.1850705,55.9446326],[-3.1848107,55.9447826],[-3.1846607,55.9450424],[-3.1845107,55.9453022],[-3.1847926,55.9454048],[-3.1850746,55.9455074],[-3.1853565,55.94561],[-3.1856163,55.94576],[-3.1858091,55.9459899],[-3.1860689,55.9458399],[-3.1863508,55.9457373],[-3.1865008,55.9454774],[-3.1866937,55.9452476],[-3.1869535,55.9453976],[-3.1871463,55.9456274],[-3.1874417,55.9455753],[-3.1877417,55.9455753],[-3.1880372,55.9455233],[-3.1883372,55.9455233],[-3.1886191,55.9456259],[-3.188901,55.9457285],[-3.1891964,55.9457806],[-3.1894919,55.9458327],[-3.1897919,55.9458327],[-3.1900873,55.9458848],[-3.1903873,55.9458848],[-3.1906828,55.9459368],[-3.1909828,55.9459368],[-3.1909828,55.9456368],[-3.1909828,55.9453368],[-3.1910349,55.9450414],[-3.1910349,55.9447414],[-3.191087,55.944446],[-3.191087,55.944146],[-3.1911391,55.9438505],[-3.1911391,55.9435505],[-3.1911391,55.9432505],[-3.1908571,55.9431479],[-3.1906643,55.9433777],[-3.1904345,55.9435706],[-3.1902047,55.9437634],[-3.1899749,55.9439562],[-3.1897451,55.9441491],[-3.1894451,55.9441491],[-3.1891496,55.9442012],[-3.1889996,55.9439414],[-3.1888496,55.9436815],[-3.1886996,55.9434217],[-3.188597,55.9431398],[-3.1884944,55.9434217],[-3.1883918,55.9437036],[-3.1882892,55.9439856],[-3.1880594,55.9441784]]},"properties":{}}]}