{"type":"FeatureCollection","features":[{"type":"Feature","geometry":{"type":"Point","coordinates":[-3.188126,55.943793]},"properties":{"marker-size":"medium","location":"cubs.trucks.help","rgb-string":"#00ff00","marker-color":"#00ff00","marker-symbol":"lighthouse"}},{"type":"Feature","geometry":{"type":"Point","coordinates":[-3.188415,55.944305]},"properties":{"marker-size":"medium","location":"trades.rare.cable","rgb-string":"#40ff00","marker-color":"#40ff00","marker-symbol":"lighthouse"}},{"type":"Feature","geometry":{"type":"Point","coordinates":[-3.188849,55.943658]},"properties":{"marker-size":"medium","location":"labels.hotels.alert","rgb-string":"#00ff00","marker-color":"#00ff00","marker-symbol":"lighthouse"}},{"type":"Feature","geometry":{"type":"Point","coordinates":[-3.189138,55.944197]},"properties":{"marker-size":"medium","location":"spoon.invest.every","rgb-string":"#40ff00","marker-color":"#40ff00","marker-symbol":"lighthouse"}},{"type":"Feature","geometry":{"type":"Point","coordinates":[-3.189619,55.94382]},"properties":{"marker-size":"medium","location":"burn.spot.across","rgb-string":"#40ff00","marker-color":"#40ff00","marker-symbol":"lighthouse"}},{"type":"Feature","geometry":{"type":"Point","coordinates":[-3.189812,55.94409]},"properties":{"marker-size":"medium","location":"cliff.asleep.wedge","rgb-string":"#40ff00","marker-color":"#40ff00","marker-symbol":"lighthouse"}},{"type":"Feature","geometry":{"type":"Point","coordinates":[-3.189812,55.94409]},"properties":{"marker-size":"medium","location":"cliff.asleep.wedge","rgb-string":"#40ff00","marker-color":"#40ff00","marker-symbol":"lighthouse"}},{"type":"Feature","geometry":{"type":"Point","coordinates":[-3.190438,55.943982]},"properties":{"marker-size":"medium","location":"pump.wheels.hulk","rgb-string":"#40ff00","marker-color":"#40ff00","marker-symbol":"lighthouse"}},{"type":"Feature","geometry":{"type":"Point","coordinates":[-3.190053,55.943173]},"properties":{"marker-size":"medium","location":"shows.fries.lamp","rgb-string":"#40ff00","marker-color":"#40ff00","marker-symbol":"lighthouse"}},{"type":"Feature","geometry":{"type":"Point","coordinates":[-3.189234,55.943012]},"properties":{"marker-size":"medium","location":"region.passes.pencil","rgb-string":"#80ff00","marker-color":"#80ff00","marker-symbol":"lighthouse"}},{"type":"Feature","geometry":{"type":"Point","coordinates":[-3.189764,55.942661]},"properties":{"marker-size":"medium","location":"hooked.shine.third","rgb-string":"#40ff00","marker-color":"#40ff00","marker-symbol":"lighthouse"}},{"type":"Feature","geometry":{"type":"Point","coordinates":[-3.190583,55.942823]},"properties":{"marker-size":"medium","location":"tonic.bliss.cove","rgb-string":"#40ff00","marker-color":"#40ff00","marker-symbol":"lighthouse"}},{"type":"Feature","geometry":{"type":"Point","coordinates":[-3.191161,55.943362]},"properties":{"marker-size":"medium","location":"meal.feed.large","rgb-string":"#00ff00","marker-color":"#00ff00","marker-symbol":"lighthouse"}},{"type":"Feature","geometry":{"type":"Point","coordinates":[-3.191257,55.945599]},"properties":{"marker-size":"medium","location":"skins.engage.best","rgb-string":"#ff4000","marker-color":"#ff4000","marker-symbol":"danger"}},{"type":"Feature","geometry":{"type":"Point","coordinates":[-3.191161,55.945976]},"properties":{"marker-size":"medium","location":"simple.rust.audio","rgb-string":"#ff0000","marker-color":"#ff0000","marker-symbol":"danger"}},{"type":"Feature","geometry":{"type":"Point","coordinates":[-3.191161,55.945976]},"properties":{"marker-size":"medium","location":"simple.rust.audio","rgb-string":"#ff0000","marker-color":"#ff0000","marker-symbol":"danger"}},{"type":"Feature","geometry":{"type":"Point","coordinates":[-3.189957,55.94603]},"properties":{"marker-size":"medium","location":"love.behind.orchestra","rgb-string":"#ff8000","marker-color":"#ff8000","marker-symbol":"danger"}},{"type":"Feature","geometry":{"type":"Point","coordinates":[-3.18986,55.945491]},"properties":{"marker-size":"medium","location":"turkey.limit.ramp","rgb-string":"#000000","marker-color":"#000000","marker-symbol":"cross"}},{"type":"Feature","geometry":{"type":"Point","coordinates":[-3.189186,55.945087]},"properties":{"marker-size":"medium","location":"number.exist.rate","rgb-string":"#80ff00","marker-color":"#80ff00","marker-symbol":"lighthouse"}},{"type":"Feature","geometry":{"type":"Point","coordinates":[-3.187404,55.945949]},"properties":{"marker-size":"medium","location":"slips.mass.baking","rgb-string":"#ff0000","marker-color":"#ff0000","marker-symbol":"danger"}},{"type":"Feature","geometry":{"type":"Point","coordinates":[-3.186922,55.945437]},"properties":{"marker-size":"medium","location":"spent.spoon.bolt","rgb-string":"#ffc000","marker-color":"#ffc000","marker-symbol":"danger"}},{"type":"Feature","geometry":{"type":"Point","coordinates":[-3.186729,55.945653]},"properties":{"marker-size":"medium","location":"hidden.handle.softly","rgb-string":"#000000","marker-color":"#000000","marker-symbol":"cross"}},{"type":"Feature","geometry":{"type":"Point","coordinates":[-3.186729,55.945653]},"properties":{"marker-size":"medium","location":"hidden.handle.softly","rgb-string":"#000000","marker-color":"#000000","marker-symbol":"cross"}},{"type":"Feature","geometry":{"type":"Point","coordinates":[-3.186296,55.945761]},"properties":{"marker-size":"medium","location":"posts.kicked.universally","rgb-string":"#ff8000","marker-color":"#ff8000","marker-symbol":"danger"}},{"type":"Feature","geometry":{"type":"Point","coordinates":[-3.186296,55.945761]},"properties":{"marker-size":"medium","location":"posts.kicked.universally","rgb-string":"#ff8000","marker-color":"#ff8000","marker-symbol":"danger"}},{"type":"Feature","geometry":{"type":"Point","coordinates":[-3.185621,55.945761]},"properties":{"marker-size":"medium","location":"shed.desire.muddy","rgb-string":"#ff0000","marker-color":"#ff0000","marker-symbol":"danger"}},{"type":"Feature","geometry":{"type":"Point","coordinates":[-3.185043,55.945868]},"properties":{"marker-size":"medium","location":"rider.aura.bulb","rgb-string":"#ff8000","marker-color":"#ff8000","marker-symbol":"danger"}},{"type":"Feature","geometry":{"type":"Point","coordinates":[-3.184513,55.945302]},"properties":{"marker-size":"medium","location":"settle.title.united","rgb-string":"#ff0000","marker-color":"#ff0000","marker-symbol":"danger"}},{"type":"Feature","geometry":{"type":"Point","coordinates":[-3.184899,55.944736]},"properties":{"marker-size":"medium","location":"slide.leads.stores","rgb-string":"#ffc000","marker-color":"#ffc000","marker-symbol":"danger"}},{"type":"Feature","geometry":{"type":"Point","coordinates":[-3.18567,55.944359]},"properties":{"marker-size":"medium","location":"atoms.vanish.foods","rgb-string":"#ff4000","marker-color":"#ff4000","marker-symbol":"danger"}},{"type":"Feature","geometry":{"type":"Point","coordinates":[-3.18514,55.943685]},"properties":{"marker-size":"medium","location":"hello.love.keys","rgb-string":"#ff8000","marker-color":"#ff8000","marker-symbol":"danger"}},{"type":"Feature","geometry":{"type":"Point","coordinates":[-3.185525,55.943982]},"properties":{"marker-size":"medium","location":"manliness.poem.cliff","rgb-string":"#ffc000","marker-color":"#ffc000","marker-symbol":"danger"}},{"type":"Feature","geometry":{"type":"Point","coordinates":[-3.186777,55.944575]},"properties":{"marker-size":"medium","location":"artist.gets.react","rgb-string":"#ff8000","marker-color":"#ff8000","marker-symbol":"danger"}},{"type":"Feature","geometry":{"type":"Point","coordinates":[-3.186537,55.944925]},"properties":{"marker-size":"medium","location":"laws.merit.bleak","rgb-string":"#ff8000","marker-color":"#ff8000","marker-symbol":"danger"}},{"type":"Feature","geometry":{"type":"Point","coordinates":[-3.186537,55.944925]},"properties":{"marker-size":"medium","location":"laws.merit.bleak","rgb-string":"#ff8000","marker-color":"#ff8000","marker-symbol":"danger"}},{"type":"Feature","geometry":{"type":"Point","coordinates":[-3.186729,55.945168]},"properties":{"marker-size":"medium","location":"dragon.bottle.crisp","rgb-string":"#ffc000","marker-color":"#ffc000","marker-symbol":"danger"}},{"type":"Feature","geometry":{"type":"Point","coordinates":[-3.187018,55.943982]},"properties":{"marker-size":"medium","location":"renew.ears.tend","rgb-string":"#c0ff00","marker-color":"#c0ff00","marker-symbol":"lighthouse"}},{"type":"Feature","geometry":{"type":"Point","coordinates":[-3.187693,55.942769]},"properties":{"marker-size":"medium","location":"panic.squad.danger","rgb-string":"#ffc000","marker-color":"#ffc000","marker-symbol":"danger"}},{"type":"Feature","geometry":{"type":"LineString","coordinates":[[-3.1878,55.9444],[-3.18795,55.9441402],[-3.1881,55.9438804],[-3.1882928,55.9441102],[-3.1884428,55.94437],[-3.1885928,55.9441102],[-3.1887428,55.9438504],[-3.1888928,55.9435906],[-3.1889954,55.9438725],[-3.189098,55.9441544],[-3.1893579,55.9440044],[-3.1895877,55.9438116],[-3.1897805,55.9440414],[-3.1900759,55.9439893],[-3.1903759,55.9439893],[-3.1902733,55.9437074],[-3.1901707,55.9434255],[-3.1900207,55.9431657],[-3.1897253,55.9431136],[-3.1894299,55.9430615],[-3.1891344,55.9430094],[-3.1893942,55.9428594],[-3.1896942,55.9428594],[-3.1897968,55.9425775],[-3.1900787,55.9426801],[-3.1903606,55.9427827],[-3.1906561,55.9428348],[-3.1908489,55.9430646],[-3.1910787,55.9432574],[-3.1910787,55.9435574],[-3.1910787,55.9438574],[-3.1911308,55.9441529],[-3.1911308,55.9444529],[-3.1911829,55.9447483],[-3.1911829,55.9450483],[-3.191235,55.9453437],[-3.191235,55.9456437],[-3.1911829,55.9459392],[-3.1908829,55.9459392],[-3.1905875,55.9459913],[-3.1902875,55.9459913],[-3.189992,55.9460434],[-3.1899399,55.9457479],[-3.1898373,55.945466],[-3.1895775,55.945316],[-3.1893177,55.945166],[-3.1890358,55.9452686],[-3.1887539,55.9453712],[-3.188472,55.9454738],[-3.1881901,55.9455765],[-3.1879303,55.9457265],[-3.1876484,55.9458291],[-3.1873886,55.9459791],[-3.1871957,55.9457492],[-3.1870029,55.9455194],[-3.1867431,55.9456694],[-3.1864476,55.9457215],[-3.1861476,55.9457215],[-3.1858476,55.9457215],[-3.1855522,55.9457736],[-3.1852568,55.9458257],[-3.1849613,55.9458778],[-3.1847685,55.945648],[-3.1845756,55.9454182],[-3.1847256,55.9451584],[-3.1848282,55.9448765],[-3.1850881,55.9447265],[-3.1853479,55.9445765],[-3.1856077,55.9444265],[-3.1854577,55.9441667],[-3.1853077,55.9439069],[-3.1851148,55.943677],[-3.1853446,55.9438699],[-3.1856045,55.9440199],[-3.1858643,55.9441699],[-3.1861462,55.9442725],[-3.1862488,55.9445544],[-3.1865442,55.9446065],[-3.1868397,55.9445544],[-3.1866468,55.9447842],[-3.186417,55.944977],[-3.1866768,55.945127],[-3.1869066,55.9453199],[-3.1870995,55.9455497],[-3.1873814,55.9456523],[-3.1876412,55.9455023],[-3.1879366,55.9454502],[-3.1882321,55.9453981],[-3.1880392,55.9451683],[-3.1878464,55.9449385],[-3.1876964,55.9446787],[-3.1875464,55.9444189],[-3.1873166,55.944226],[-3.1870868,55.9440332],[-3.1872368,55.9437734],[-3.1873394,55.9434915],[-3.1874894,55.9432317],[-3.187592,55.9429498],[-3.187742,55.94269],[-3.187742,55.94299],[-3.187742,55.94329],[-3.187742,55.94359],[-3.187742,55.94389]]},"properties":{}}]}